[{"name":"Intermarché Bourg en Bresse","city":"Bourg en Bresse","departmentNumber":"Ain","location":[5.2281312,46.1956093]},{"name":"Super U Villars-les-Dombes","city":"Villars-les-Dombes","departmentNumber":"Ain","location":[5.0369115,46.0072482]},{"name":"Cora Vichy ","city":"Vichy","departmentNumber":"Allier","location":[3.4139008,46.1440429]},{"name":"Leclerc Manosque","city":"Manosque","departmentNumber":"Alpes de Haute-Provence","location":[5.8035627,43.8378255]},{"name":"Leclerc Gap ","city":"Gap","departmentNumber":"Hautes-Alpes","location":[6.093073299999999,44.5630264]},{"name":"Cabane du 12","city":"Nice","departmentNumber":"Alpes-Maritimes","location":[7.275380499999999,43.7012507]},{"name":"Leclerc Le Cannet Rocheville","city":"Le Cannet","departmentNumber":"Alpes-Maritimes","location":[7.000858099999999,43.5725888]},{"name":"Intermarché Cantaron","city":"Cantaron","departmentNumber":"Alpes-Maritimes","location":[7.336641999999999,43.778149]},{"name":"Intermarché Aubenas","city":"Aubenas","departmentNumber":"Ardêche","location":[4.4075312,44.6164051]},{"name":"Leclerc Franconville","city":"St etienne de Fontbellon","departmentNumber":"Ardêche","location":[2.2070101,48.9901481]},{"name":"Intermarché Pamiers","city":"Pamiers","departmentNumber":"Ariège","location":[1.631272,43.105814]},{"name":"Intermarché St Rémy de Provence","city":"St Rémy de Provence","departmentNumber":"Bouches-du-Rhône","location":[4.8278444,43.7942304]},{"name":"Intermarché Saint-Rémy de Provence","city":" Saint-Rémy-de-Provence","departmentNumber":"Bouches-du-Rhône","location":[4.8278444,43.7942304]},{"name":"Géant Casino Marseille La Valentine","city":"Marseille","departmentNumber":"Bouches-du-Rhône","location":[5.4826255,43.2998897]},{"name":"Leclerc Cabries ","city":"Cabries ","departmentNumber":"Bouches-du-Rhône","location":[5.3665426,43.4213356]},{"name":"E.Leclerc SALON DE PROVENCE","city":"Salon de Provence","departmentNumber":"Bouches-du-Rhône","location":[5.1154044,43.629296]},{"name":"E.Leclerc Cabries","city":"Cabries","departmentNumber":"Bouches-du-Rhône","location":[5.3665426,43.4213356]},{"name":"Intermarché Super Ventabren","city":"Ventabren","departmentNumber":"Bouches-du-Rhône","location":[5.294607,43.546632]},{"name":"Cora Rots","city":"Rots","departmentNumber":"Calvados","location":[-0.477036,49.206197]},{"name":"Super U ST CONTEST","city":"Saint-Contest","departmentNumber":"Calvados","location":[-0.3976911,49.20013429999999]},{"name":"Cora Rots","city":"Rots","departmentNumber":"Calvados","location":[-0.477036,49.206197]},{"name":"Super U Condé","city":"Condé","departmentNumber":"Calvados","location":[-0.5527639999999999,48.850993]},{"name":"Super U Giberville","city":"Giberville","departmentNumber":"Calvados","location":[-0.283315,49.181434]},{"name":"Super U Colombelle","city":"Colombelle","departmentNumber":"Calvados","location":[-0.2997313,49.18964339999999]},{"name":"Super U Blainville","city":"Blainville Sur Orne","departmentNumber":"Calvados","location":[-0.2917046,49.2340482]},{"name":"Super U Saint Contest","city":"Saint Contest","departmentNumber":"Calvados","location":[-0.3976911,49.20013429999999]},{"name":"Molybagert Cuisine Végétale Normande","city":"Trouville","departmentNumber":"Calvados","location":[0.0879129,49.3604555]},{"name":"Cora Perrigny Les Dijon","city":"Perrigny Les Dijon","departmentNumber":"Côte-d'Or","location":[5.0035241,47.2705505]},{"name":"Cora Dijon ","city":"Dijon","departmentNumber":"Côte-d'Or","location":[5.04148,47.322047]},{"name":"Intermarché Fontaine-les-Dijon","city":"Fontaine-les-Dijon","departmentNumber":"Côte-d'Or","location":[5.0311917,47.3363133]},{"name":"Hyper U ","city":"Pontarlier","departmentNumber":"Doubs","location":[6.3513104,46.9056189]},{"name":"Intermarché Perrier-Sur-Andelle","city":"Perrier-Sur-Andelle","departmentNumber":"Eure","location":[1.367989,49.41140499999999]},{"name":"Leclerc Gisors","city":"Trie Chateau","departmentNumber":"Eure","location":[1.7875878,49.2618798]},{"name":"Intermarché Verneuil-sur-Avre","city":"Verneuil-sur-Avre","departmentNumber":"Eure","location":[0.930172,48.740966]},{"name":"Terroirs Véganes Mesnil-Thomas ","city":"Mesnil-Thomas ","departmentNumber":"Eure-et-Loir","location":[1.094768,48.599666]},{"name":"Intermarché Briec","city":"Briec","departmentNumber":"Finistère","location":[-4.0138402,48.0998362]},{"name":"A la végétale","city":"Nîmes","departmentNumber":"Gard","location":[4.358700799999999,43.8384648]},{"name":"Intermarché Sommières","city":"Sommières","departmentNumber":"Gard","location":[4.080126,43.78118]},{"name":"Cora Alès","city":"Alès","departmentNumber":"Gard","location":[4.0967593,44.1126655]},{"name":"Leclerc Les Angles","city":"Les Angles","departmentNumber":"Gard","location":[4.74789,43.9601169]},{"name":"Leclerc Nîmes","city":"Nîmes","departmentNumber":"Gard","location":[4.3933148,43.8371815]},{"name":"Leclerc Les Angles ","city":"LES ANGLES","departmentNumber":"Gard","location":[4.74789,43.9601169]},{"name":"À la Végétale","city":"Nîmes","departmentNumber":"Gard","location":[4.358700799999999,43.8384648]},{"name":"Le cri de la carotte","city":"Toulouse","departmentNumber":"Haute-Garonne","location":[1.4338869,43.591613]},{"name":"Intermarché La Vache Toulouse","city":"Toulouse ","departmentNumber":"Haute-Garonne","location":[1.4352555,43.63351249999999]},{"name":"Intermarché Saint-Médard-en-Jalles","city":"Saint-Médard-en-Jalles","departmentNumber":"Gironde","location":[-0.747337,44.90434399999999]},{"name":"Intermarché SUPER Marcheprime","city":"Marcheprime","departmentNumber":"Gironde","location":[-0.8568018,44.6909625]},{"name":"Géant Casino Saint-André-de-Culzac","city":"Saint-André-de-Culzac","departmentNumber":"Gironde","location":[-0.4247,45.01108]},{"name":"Sweet Greens","city":"Eysines","departmentNumber":"Gironde","location":[-0.6665487,44.8932508]},{"name":"The Good Place","city":"Montpellier","departmentNumber":"Hérault","location":[3.8778485,43.605427]},{"name":"Intermarché Lunel","city":"Lunel","departmentNumber":"Hérault","location":[4.114808,43.676503]},{"name":"Intermarché Villemagne-l'Argentière","city":"Villemagne-l'Argentière","departmentNumber":"Hérault","location":[3.120009,43.618049]},{"name":"Intermarché Bedarieux Villemagne","city":"Bedarieux Villemagne","departmentNumber":"Hérault","location":[3.167373,43.610054]},{"name":"Intermarché Longchamps","city":"Rennes","departmentNumber":"Îlle-et-Vilaine","location":[-1.6330127,48.1304676]},{"name":"Leclerc Bain de Bretagne","city":"Bain de Bretagne","departmentNumber":"Îlle-et-Vilaine","location":[-1.6887781,47.8595731]},{"name":"Leclerc Vern sur Seiche","city":"Rennes","departmentNumber":"Îlle-et-Vilaine","location":[-1.623281,48.0629427]},{"name":"Leclerc Saint Grégoire","city":"Saint Grégoire","departmentNumber":"Îlle-et-Vilaine","location":[-1.6840555,48.1389353]},{"name":"Super U Pripiac","city":"Pripiac","departmentNumber":"Îlle-et-Vilaine","location":[-1.9369671,47.810189]},{"name":"Végestal","city":"Rennes","departmentNumber":"Îlle-et-Vilaine","location":[-1.6774598,48.1141949]},{"name":"Cora Pacé","city":"Pacé","departmentNumber":"Îlle-et-Vilaine","location":[-1.7692773,48.1381915]},{"name":"Cora Saint-Jouan-des-Guérets (Saint-Malo)","city":"Saint-Jouan-des-Guérets","departmentNumber":"Îlle-et-Vilaine","location":[-1.9779616,48.6064371]},{"name":"Auchan Tours Nord petite arche","city":"Tours","departmentNumber":"Indre-et-Loire","location":[0.6993039,47.4275522]},{"name":"Intermarché Hyper Dole","city":"Dole","departmentNumber":"Jura","location":[5.510242,47.109189]},{"name":"Hyper U Montmorot ","city":"Montmorot","departmentNumber":"Jura","location":[5.5248895,46.6689126]},{"name":"Leclerc Grand Mail","city":"Saint Paul Les Dax","departmentNumber":"Landes","location":[-1.0399207,43.7295071]},{"name":"Leclerc Dax","city":"Dax","departmentNumber":"Landes","location":[-1.045386,43.707871]},{"name":"Leclerc Soustons","city":"Soustons","departmentNumber":"Landes","location":[-1.3322679,43.7448458]},{"name":"Leclerc Linxe","city":"Linxe","departmentNumber":"Landes","location":[-1.2552169,43.9279332]},{"name":"Cora Blois","city":"Blois","departmentNumber":"Loir-et-Cher","location":[1.2980087,47.622754]},{"name":"Intermarché Super Rive de Gier","city":"Rive de Gier","departmentNumber":"Loire","location":[4.628441,45.532943]},{"name":"Leclerc Chateaubriant","city":"Chateaubriant","departmentNumber":"Loire-Atlantique","location":[-1.3881623,47.707096]},{"name":"Leclerc Clisson","city":"Clisson","departmentNumber":"Loire-Atlantique","location":[-1.280386,47.0980011]},{"name":"Leclerc Saint Nazaire","city":"Saint Nazaire","departmentNumber":"Loire-Atlantique","location":[-2.2501689,47.287721]},{"name":"Leclerc Atlantis","city":"Saint Herblain","departmentNumber":"Loire-Atlantique","location":[-1.6317761,47.2251725]},{"name":"Leclerc Herbignac","city":"Herbignac","departmentNumber":"Loire-Atlantique","location":[-2.3153744,47.4519684]},{"name":"Leclerc Saint Nicolas de Redon","city":"Saint Nicolas de Redon","departmentNumber":"Loire-Atlantique","location":[-2.077902,47.6475772]},{"name":"Leclerc Océane","city":"Rezé ","departmentNumber":"Loire-Atlantique","location":[-1.546041,47.160797]},{"name":"Leclerc Paridis ","city":" Nantes","departmentNumber":"Loire-Atlantique","location":[-1.5144854,47.24887469999999]},{"name":"Leclerc Orvault Grand Val","city":"Orvault (Nantes)","departmentNumber":"Loire-Atlantique","location":[-1.5885661,47.2619553]},{"name":"Intermarché Zola","city":"Nantes","departmentNumber":"Loire-Atlantique","location":[-1.5864966,47.2148555]},{"name":"Intermarché Guérande","city":"Guérande","departmentNumber":"Loire-Atlantique","location":[-2.407004,47.303939]},{"name":"LECLERC ANCENIS/ST-GEREON","city":"Ancenis","departmentNumber":"Loire-Atlantique","location":[-1.1954193,47.3734512]},{"name":"Leclerc Pontchâteau","city":"Pontchâteau","departmentNumber":"Loire-Atlantique","location":[-2.0822793,47.4335125]},{"name":"Intermarché SUPER Guérande","city":"Guérande","departmentNumber":"Loire-Atlantique","location":[-2.407004,47.303939]},{"name":"E.Leclerc Ancenis","city":"Ancenis","departmentNumber":"Loire-Atlantique","location":[-1.1954193,47.3734512]},{"name":"Leclerc Blain","city":"Blain","departmentNumber":"Loire-Atlantique","location":[-1.7532635,47.4760821]},{"name":"Intermarché Nantes Saint-Jospeh","city":"Nantes ","departmentNumber":"Loire-Atlantique","location":[-1.5283596,47.2580317]},{"name":"Leclerc Villeneuve Sur Lot ","city":"Villeneuve sur Lot","departmentNumber":"Lot-et-Garonne","location":[0.7348716,44.4110451]},{"name":"Leclerc Tonneins","city":"Tonneins","departmentNumber":"Lot-et-Garonne","location":[0.2965589,44.4006783]},{"name":"Leclerc Marmande","city":"Marmande","departmentNumber":"Lot-et-Garonne","location":[0.1348892,44.5140621]},{"name":"Leclerc Bon-Encontre","city":" Bon-Encontre","departmentNumber":"Lot-et-Garonne","location":[0.6710389999999999,44.1811754]},{"name":"Leclerc Chemillé en Anjou","city":"Chemillé en Anjou","departmentNumber":"Maine-et-Loire","location":[-0.7234438999999999,47.2371215]},{"name":"Leclerc Segré","city":"Segré","departmentNumber":"Maine-et-Loire","location":[-0.8776563,47.6785468]},{"name":"Leclerc Cholet Sud","city":"Cholet","departmentNumber":"Maine-et-Loire","location":[-0.9032084,47.0402651]},{"name":"Prends en de la Graine","city":"Angers","departmentNumber":"Maine-et-Loire","location":[-0.550724,47.473563]},{"name":"E.Leclerc ST LEGER DE LINIERES","city":"Saint-Léger-de-Linières","departmentNumber":"Maine-et-Loire","location":[-0.6694617,47.4648263]},{"name":"Leclerc Angers","city":"Angers","departmentNumber":"Maine-et-Loire","location":[-0.5745074,47.4821787]},{"name":"Super U Sartilly-Baie-Bocage","city":"Sartilly-Baie-Bocage","departmentNumber":"Manche","location":[-1.4622954,48.7508123]},{"name":"Cora Cormontreuil","city":"Cormontreuil","departmentNumber":"Marne","location":[4.054048,49.2153206]},{"name":"U Express Reims Courcelles","city":"Reims","departmentNumber":"Marne","location":[4.0192485,49.261805]},{"name":"Cora Saint Dizier","city":"Saint Dizier","departmentNumber":"Haute-Marne","location":[4.960075,48.649967]},{"name":"Intermarché Neuves-Maison","city":"Neuves-Maison","departmentNumber":"Meurthe-et-Moselle","location":[6.090576599999999,48.6148033]},{"name":"Match Villers","city":"Villers Lès Nancy","departmentNumber":"Meurthe-et-Moselle","location":[6.153576,48.672398]},{"name":"Cora Houdemont ","city":"Nancy","departmentNumber":"Meurthe-et-Moselle","location":[6.185713199999999,48.64031070000001]},{"name":"Match Médreville","city":"Médreville","departmentNumber":"Meurthe-et-Moselle","location":[6.1600489,48.684708]},{"name":"Match Malzéville","city":"Malzéville","departmentNumber":"Meurthe-et-Moselle","location":[6.183463,48.708323]},{"name":"Hyper Auchan Mont-Saint-Martin","city":"Mont-Saint-Martin","departmentNumber":"Meurthe-et-Moselle","location":[5.7968402,49.54432]},{"name":"Leclerc Vannes","city":"Vannes","departmentNumber":"Morbihan","location":[-2.7930742,47.6680224]},{"name":"Veg'a Drak","city":"Lanester","departmentNumber":"Morbihan","location":[-3.3486696,47.7711274]},{"name":"Vegadrak Lanester","city":"Lanester","departmentNumber":"Morbihan","location":[-3.3486696,47.7711274]},{"name":"Intermarché CONTACT Sulniac","city":"Sulniac","departmentNumber":"Morbihan","location":[-2.570656,47.67486]},{"name":"Super U St-Julien-Les-Metz","city":"St-Julien-Les-Metz","departmentNumber":"Moselle","location":[6.196787,49.12622649999999]},{"name":"Cora Moulins Les Metz","city":"Moulins Les Metz","departmentNumber":"Moselle","location":[6.1110253,49.08496539999999]},{"name":"Super U Tannerie Saint Julien les Metz","city":"Saint Julien les Metz","departmentNumber":"Moselle","location":[6.196787,49.12622649999999]},{"name":"Super U Montigny-Les-Metz","city":"Montigny-Les-Metz","departmentNumber":"Moselle","location":[6.1571609,49.0885319]},{"name":"Cora Mondelange","city":"Mondelange","departmentNumber":"Moselle","location":[6.174074699999999,49.2628739]},{"name":"Super U Fontoy ","city":"Fontoy","departmentNumber":"Moselle","location":[5.9807322,49.3569055]},{"name":"Match Solférino","city":"Lille","departmentNumber":"Nord","location":[3.05391,50.6321871]},{"name":"Match Lambersart","city":"Lambersart","departmentNumber":"Nord","location":[3.0260987,50.63778869999999]},{"name":"Match Marcq-en-Baroeul","city":"Lille","departmentNumber":"Nord","location":[3.078089,50.666805]},{"name":"Match Cysoing","city":"Cysoing","departmentNumber":"Nord","location":[3.2234989,50.566152]},{"name":"Super U Nieppe","city":"Nieppe","departmentNumber":"Nord","location":[2.84158,50.68626]},{"name":"Match Wervicq-Sud","city":"Wervicq-Sud","departmentNumber":"Nord","location":[3.041675300000001,50.77102000000001]},{"name":"Match La Madeleine","city":"La Madeleine","departmentNumber":"Nord","location":[3.0748095,50.6579577]},{"name":"Match Cambrai","city":"Cambrai","departmentNumber":"Nord","location":[3.2315393,50.1685631]},{"name":"U Express Lille","city":"Lille","departmentNumber":"Nord","location":[3.0599472,50.64727569999999]},{"name":"Super U Nieppe","city":"Nieppe","departmentNumber":"Nord","location":[2.84158,50.68626]},{"name":"Cora Dunkerque","city":"Dunkerque","departmentNumber":"Nord","location":[2.3799389,51.0163776]},{"name":"Super U Merville ","city":"Merville","departmentNumber":"Nord","location":[2.6533388,50.64037039999999]},{"name":"Intermarché HYPER La Gorgue","city":"La Gorgue","departmentNumber":"Nord","location":[2.721509,50.635002]},{"name":"Intermarché Marquette-lez-Lille","city":"Marquette-lez-Lille","departmentNumber":"Nord","location":[3.042809,50.666569]},{"name":"E.Leclerc DRIVE Lomme","city":"Lomme","departmentNumber":"Nord","location":[2.9701441,50.63887880000001]},{"name":"Auchan Valenciennes","city":"Valenciennes","departmentNumber":"Nord","location":[3.5188511,50.345427]},{"name":"Auchan Roncq","city":"Roncq","departmentNumber":"Nord","location":[3.1352796,50.7379848]},{"name":"Auchan Villeneuve d'Ascq","city":"Villeneuve d'Ascq ","departmentNumber":"Nord","location":[3.1307407,50.6180506]},{"name":"Intermarché Senlis","city":"Senlis","departmentNumber":"Oise","location":[2.591212,49.221316]},{"name":"Leclerc Pont Sainte Maxence","city":"Pont Sainte Maxence","departmentNumber":"Oise","location":[2.6106251,49.3181004]},{"name":"Leclerc Saint Just en Chaussée","city":"Saint Just en Chaussée","departmentNumber":"Oise","location":[2.4335039,49.5115078]},{"name":"Leclerc Ribecourt","city":"Ribecourt","departmentNumber":"Oise","location":[2.9293007,49.51763529999999]},{"name":"Leclerc Liancourt","city":"Liancourt","departmentNumber":"Oise","location":[2.468027,49.329255]},{"name":"Leclerc Beauvais ","city":"Beauvais","departmentNumber":"Oise","location":[2.0888209,49.4322054]},{"name":"Super U Thourotte","city":"Thourotte","departmentNumber":"Oise","location":[2.8654912,49.4771896]},{"name":"Leclerc Lacroix St Ouen","city":"Lacroix-Saint-Ouen","departmentNumber":"Oise","location":[2.777792,49.35785]},{"name":"Leclerc Drive Saint Maximin","city":"Saint Maximin","departmentNumber":"Oise","location":[2.4593265,49.2317829]},{"name":"Hyper U Baralle","city":"Baralle","departmentNumber":"Pas-de-Calais","location":[3.0632808,50.2154967]},{"name":"Cora Lens","city":"Vendin-le-Vieil","departmentNumber":"Pas-de-Calais","location":[2.82594,50.4603723]},{"name":"Hyper U Biache-Saint-Vaast","city":"Biache-Saint-Vaast","departmentNumber":"Pas-de-Calais","location":[2.9506585,50.3089096]},{"name":"Super U Vitry-en-Artois","city":"Vitry-en-Artois","departmentNumber":"Pas-de-Calais","location":[3.0015973,50.3318246]},{"name":"Intermarché SUPER Bruay La Buissiere","city":"Bruay La Buissiere","departmentNumber":"Pas-de-Calais","location":[2.537528,50.473864]},{"name":"Cora Supermarché Courrières","city":"Courrières","departmentNumber":"Pas-de-Calais","location":[2.946283,50.458378]},{"name":"Auchan Longuenesse","city":"Longuenesse","departmentNumber":"Pas-de-Calais","location":[2.2691646,50.7346204]},{"name":"Auchan Noyelles-Godault","city":"Noyelles-Godault","departmentNumber":"Pas-de-Calais","location":[2.9787352,50.4126955]},{"name":"Alterneitiv","city":"Clermont Ferrand","departmentNumber":"Puy-de-Dôme","location":[3.087599,45.78024080000001]},{"name":"Cora Lempdes","city":"Lempdes","departmentNumber":"Puy-de-Dôme","location":[3.198363,45.7790472]},{"name":"Food Sentimentale","city":"Bayonne","departmentNumber":"Pyrénées-Atlantiques","location":[-1.4755754,43.4927079]},{"name":"Leclerc Bois Belin","city":"Anglet","departmentNumber":"Pyrénées-Atlantiques","location":[-1.5196903,43.4932408]},{"name":"Leclerc Urrugne","city":"Urrugne","departmentNumber":"Pyrénées-Atlantiques","location":[-1.6770356,43.3745459]},{"name":"Leclerc Mazeres-Lezons","city":"Mazères-Lezons","departmentNumber":"Pyrénées-Atlantiques","location":[-0.3599748,43.2805713]},{"name":"Leclerc Pau","city":"Pau","departmentNumber":"Pyrénées-Atlantiques","location":[-0.3589381,43.3172475]},{"name":"Intermarché Bidart","city":"Bidart","departmentNumber":"Pyrénées-Atlantiques","location":[-1.574162,43.44771799999999]},{"name":"Leclerc express Hasparren","city":"Hasparren","departmentNumber":"Pyrénées-Atlantiques","location":[-1.313904,43.38643649999999]},{"name":"Leclerc Orleix","city":"Orleix","departmentNumber":"Hautes-Pyrénées","location":[0.1076314,43.2670631]},{"name":"Intermarché Elne","city":"Elne","departmentNumber":"Hautes-Pyrénées","location":[2.9777707,42.604896]},{"name":"Envie Vegane","city":"Strasbourg","departmentNumber":"Bas-Rhin","location":[7.757028999999999,48.5808149]},{"name":"Match Strasbourg Robertsau","city":"Strasbourg","departmentNumber":"Bas-Rhin","location":[7.782666499999999,48.6116831]},{"name":"Terre Végane","city":"Rixheim","departmentNumber":"Bas-Rhin","location":[7.3997632,47.76011279999999]},{"name":"Super U WOLFISHEIM","city":"Wolfisheim","departmentNumber":"Bas-Rhin","location":[7.670496,48.58973]},{"name":"Super U Hoenheim","city":"Hoenheim","departmentNumber":"Bas-Rhin","location":[7.763258,48.63099889999999]},{"name":"Super U Bernolsheim","city":"Bernolsheim","departmentNumber":"Bas-Rhin","location":[7.6879093,48.7481417]},{"name":"Super U Bernolsheim","city":"Bernolsheim","departmentNumber":"Bas-Rhin","location":[7.6879093,48.7481417]},{"name":"Super U Lingolsheim","city":"Lingolsheim","departmentNumber":"Bas-Rhin","location":[7.690637499999998,48.5632554]},{"name":"Supermarché U Express STRASBOURG","city":"Strasbourg Petite-France","departmentNumber":"Bas-Rhin","location":[7.741510899999999,48.5811142]},{"name":"Hyper U Sierentz","city":"Sierentz","departmentNumber":"Haut-Rhin","location":[7.4402846,47.6665122]},{"name":"Super U Colmar ","city":"Colmar ","departmentNumber":"Haut-Rhin","location":[7.363860000000001,48.06621]},{"name":"Super U Munster ","city":"Munster","departmentNumber":"Haut-Rhin","location":[7.159403699999999,48.0432126]},{"name":"Super U Riedisheim","city":"Riedisheim","departmentNumber":"Haut-Rhin","location":[7.35672,47.74712]},{"name":"Cora Houssen","city":"Houssen","departmentNumber":"Haut-Rhin","location":[7.3684719,48.1263094]},{"name":"Hyper U Colmar ","city":"Colmar ","departmentNumber":"Haut-Rhin","location":[7.340469999999999,48.06216]},{"name":"Official Vegan Shop","city":"VENTE A DISTANCE ","departmentNumber":"Rhône","link":"https://www.officialveganshop.com"},{"name":"Le Petit Colibri Lyon","city":"Lyon (livraison)","departmentNumber":"Rhône","location":[4.835659,45.764043]},{"name":"Supermarché Super U Lyon","city":"Lyon","departmentNumber":"Rhône","location":[4.835659,45.764043]},{"name":"Super U Vendôme Lyon 3ème","city":"Lyon","departmentNumber":"Rhône","location":[4.8457826,45.7647905]},{"name":"Cora Vesoul","city":"Vesoul","departmentNumber":"Haute-Saône","location":[6.1710347,47.6258294]},{"name":"Super U HERICOURT","city":"Hericourt","departmentNumber":"Haute-Saône","location":[6.758915999999999,47.57524]},{"name":"Leclerc Solesmes","city":"Solesmes ","departmentNumber":"Sarthe","location":[-0.305581,47.85096600000001]},{"name":"Super U La Ravoire","city":"La Ravoire","departmentNumber":"Savoie","location":[5.966069,45.5620578]},{"name":"Intermarché Bourg-saint-Maurice","city":"Bourg-saint-Maurice","departmentNumber":"Savoie","location":[6.779611,45.62388600000001]},{"name":"Cora Amphion Les Bains","city":"Amphion Les Bains","departmentNumber":"Haute-Savoie","location":[6.5249619,46.39106899999999]},{"name":"Super U Bonne","city":"Bonne","departmentNumber":"Haute-Savoie","location":[6.315064800000001,46.169769]},{"name":"Hyper U Rumilly","city":"Rumilly","departmentNumber":"Haute-Savoie","location":[5.942356999999999,45.867137]},{"name":"Mon Epicerie Paris","city":"Paris 3","departmentNumber":"Paris","comments":"Vend aussi à distance","location":[2.3560069,48.8639479]},{"name":"Intermarché Brancion","city":"Paris 15","departmentNumber":"Paris","location":[2.3033826,48.8326103]},{"name":"Leclerc Montparnasse","city":"Paris 14","departmentNumber":"Paris","location":[2.330491,48.83933039999999]},{"name":"Leclerc Rosa Parks","city":"Paris 19","departmentNumber":"Paris","location":[2.3738552,48.8983801]},{"name":"Aujourd'hui Demain","city":"Paris 11","departmentNumber":"Paris","location":[2.3746011,48.8588878]},{"name":"Super U Paris Clichy ","city":"Paris 17","departmentNumber":"Paris","location":[2.322058,48.889279]},{"name":"Super U Rue Paul Bert 75011 Paris","city":"Paris 11","departmentNumber":"Paris","location":[2.3848567,48.8519687]},{"name":"Super U Simplon","city":"Paris 18","departmentNumber":"Paris","location":[2.348208,48.8937651]},{"name":"Super U Paris Faidherbe ","city":"Paris 11","departmentNumber":"Paris","location":[2.3848567,48.8519687]},{"name":"Intermarché Charenton ","city":"Paris 12","departmentNumber":"Paris","location":[2.3841675,48.8446095]},{"name":"Intermarché Roquette ","city":"Paris 11","departmentNumber":"Paris","location":[2.387381,48.85924]},{"name":"Franprix Paris 12 (avenue du général michel bizot)","city":"Paris 12","departmentNumber":"Paris","location":[2.4022301,48.8357278]},{"name":"Monoprix Belvedere ","city":"Paris 19","departmentNumber":"Paris","location":[2.3835,48.88586799999999]},{"name":"Vivanie","city":"Rouen","departmentNumber":"Seine-Maritime","location":[1.0960244,49.4395384]},{"name":"Super U Les Halles","city":"Le Havre","departmentNumber":"Seine-Maritime","location":[0.0980673,49.4926896]},{"name":"U Express hôtel de ville Rouen","city":"Rouen","departmentNumber":"Seine-Maritime","location":[1.099971,49.44323199999999]},{"name":"Super U Bihorel","city":"Bihorel","departmentNumber":"Seine-Maritime","location":[1.12617,49.46207]},{"name":"Super U Mont-Saint-Aignan","city":"Mont-Saint-Aignan","departmentNumber":"Seine-Maritime","location":[1.0796147,49.462627]},{"name":"Intermarché SUPER Criquetot-L'Esneval","city":"Criquetot-L'Esneval","departmentNumber":"Seine-Maritime","location":[0.2710753,49.64278299999999]},{"name":"Intermarché Constantine ","city":"Rouen","departmentNumber":"Seine-Maritime","location":[1.0674913,49.4491631]},{"name":"Intermarché jardin des plantes Rouen","city":"Rouen","departmentNumber":"Seine-Maritime","location":[1.0771316,49.4220552]},{"name":"Leclerc Chelles","city":"Chelles","departmentNumber":"Seine-et-Marne","location":[2.5899808,48.8700047]},{"name":"Leclerc Clos du Chêne","city":"Montévrain","departmentNumber":"Seine-et-Marne","location":[2.756171,48.853799]},{"name":"Leclerc Montévrain","city":"Montévrain","departmentNumber":"Seine-et-Marne","location":[2.7542602,48.8525072]},{"name":"Super U Noisy Champs","city":"Noisy Champs","departmentNumber":"Seine-et-Marne"},{"name":"Leclerc Dammarie Les Lys","city":"Dammarie Les Lys","departmentNumber":"Seine-et-Marne","location":[2.6062422,48.5091017]},{"name":"Super U Couilly Pont Aux Dames","city":"Couilly","departmentNumber":"Seine-et-Marne","location":[2.866361,48.879532]},{"name":"Hyper U Brie Comte Robert","city":"Brie Comte Robert","departmentNumber":"Seine-et-Marne","location":[2.6009363,48.7041423]},{"name":"Intermarché Othis","city":"Othis","departmentNumber":"Seine-et-Marne","location":[2.6699145,49.0728742]},{"name":"Super U La Ferte Gaucher","city":"Ferte Gaucher","departmentNumber":"Seine-et-Marne","location":[3.29694,48.78202]},{"name":"Leclerc Carrières sous Poissy","city":"Carrières sous Poissy","departmentNumber":"Yvelines","location":[2.0288926,48.9416531]},{"name":"Leclerc Bois d'Arcy","city":"Bois d'Arcy","departmentNumber":"Yvelines","location":[2.0380871,48.79897949999999]},{"name":"Super U Viroflay","city":"Viroflay","departmentNumber":"Yvelines","location":[2.1743816,48.8037899]},{"name":"Leclerc Houilles","city":"Houilles","departmentNumber":"Yvelines","location":[2.1984027,48.9215345]},{"name":"Leclerc Mantes La Ville","city":"Mantes La Ville ","departmentNumber":"Yvelines","location":[1.6997046,48.9829635]},{"name":"Intermarché Mantes-la-Jolie","city":"Mantes-la-Jolie","departmentNumber":"Yvelines","location":[1.71105,48.9976272]},{"name":"Leclerc Rambouillet","city":"Rambouillet","departmentNumber":"Yvelines","location":[1.8574682,48.6471424]},{"name":"Super U Poissy","city":"Poissy","departmentNumber":"Yvelines","location":[2.046982,48.929584]},{"name":"Super U Chatou","city":"Chatou","departmentNumber":"Yvelines","location":[2.1560081,48.8865042]},{"name":"Leclerc Bressuire","city":"Bressuire","departmentNumber":"Deux-Sèvres","location":[-0.4983955999999999,46.8494824]},{"name":"Match Amiens","city":"Amiens","departmentNumber":"Somme","location":[2.295753,49.894067]},{"name":"Vivanie Amiens","city":"Amiens","departmentNumber":"Somme","location":[2.2994076,49.8948601]},{"name":"Intermarché Le Séquestre","city":"Albi","departmentNumber":"Tarn","location":[2.127228,43.91222399999999]},{"name":"Intermarché Les Sables d'Olonne","city":"Les Sables d'Olonne","departmentNumber":"Vendée","location":[-1.795493,46.49295799999999]},{"name":"Leclerc Chantonnay","city":"Chantonnay","departmentNumber":"Vendée","location":[-1.0515695,46.7009388]},{"name":"Leclerc Les Oudairies","city":"La Roche Sur Yon","departmentNumber":"Vendée","location":[-1.4056967,46.67216579999999]},{"name":"Leclerc Le Poiré Sur vie","city":"Le Poiré Sur Vie","departmentNumber":"Vendée","location":[-1.498341,46.766026]},{"name":"Leclerc Chantonnay","city":"Chantonnay","departmentNumber":"Vendée","location":[-1.0515695,46.7009388]},{"name":"Leclerc La Roche sur Yon Les oudairies ","city":"La Roche Sur Yon","departmentNumber":"Vendée","location":[-1.4053584,46.6751231]},{"name":"Hyper U La Roche sur Yon","city":"La Roche Sur Yon","departmentNumber":"Vendée","location":[-1.4093177,46.6677454]},{"name":"Leclerc Sables d'Olonne","city":"Les Sables d'Olonne","departmentNumber":"Vendée","location":[-1.777949,46.5156132]},{"name":"Leclerc Les Herbiers ","city":"Les Herbiers ","departmentNumber":"Vendée","location":[-1.0132205,46.857007]},{"name":"Leclerc Challans","city":"Challans","departmentNumber":"Vendée","location":[-1.8980786,46.853456]},{"name":"E.Leclerc LA ROCHE SUR YON","city":"LA ROCHE SUR YON","departmentNumber":"Vendée","location":[-1.426442,46.670511]},{"name":"Intermarché Charles le Gendre","city":"Limoges","departmentNumber":"Haute-Vienne","location":[1.2448066,45.8140219]},{"name":"Intermarché Dupuytren","city":"Limoges","departmentNumber":"Haute-Vienne","location":[1.2578438,45.8270931]},{"name":"Intermarché Joigny","city":"Joigny ","departmentNumber":"Yonne","location":[3.3989285,47.9847286]},{"name":"Intermarché HYPER Joigny","city":"Joigny ","departmentNumber":"Yonne","location":[3.379552,47.979763]},{"name":"Super U Valdoie","city":"Valdoie","departmentNumber":"Territoire-de-Belfort","location":[6.8433955,47.6685538]},{"name":"Leclerc Gometz La Ville","city":"Gometz La Ville","departmentNumber":"Essonne","location":[2.1199483,48.66890830000001]},{"name":"Cora Massy Centre Commercial","city":"Massy","departmentNumber":"Essonne","location":[2.2767076,48.7252674]},{"name":"Leclerc Étampes","city":"Étampes","departmentNumber":"Essonne","location":[2.1383256,48.4410003]},{"name":"Leclerc Etampes ","city":"Etampes","departmentNumber":"Essonne","location":[2.1383256,48.4410003]},{"name":"Leclerc Clichy","city":"Clichy","departmentNumber":"Hauts-de-Seine","location":[2.304768,48.904526]},{"name":"Intermarché","city":"Boulogne Billancourt","departmentNumber":"Hauts-de-Seine","location":[2.2284442,48.8347092]},{"name":"Leclerc Rueil","city":"Rueil-Malmaison","departmentNumber":"Hauts-de-Seine","location":[2.194152,48.86207659999999]},{"name":"Super U Clamart","city":"Clamart","departmentNumber":"Hauts-de-Seine","location":[2.2717072,48.8116741]},{"name":"Leclerc Colombes","city":"Colombes","departmentNumber":"Hauts-de-Seine","location":[2.2533313,48.9220615]},{"name":"Intermarché Express Asnières","city":"Asnières Sur Seine","departmentNumber":"Hauts-de-Seine","location":[2.2775556,48.915752]},{"name":"Leclerc So Ouest Levallois-Perret","city":"Levallois-Perret","departmentNumber":"Hauts-de-Seine","location":[2.2978347,48.8930608]},{"name":"Auchan La Défense","city":"La Défense","departmentNumber":"Hauts-de-Seine","location":[2.2351453,48.8911534]},{"name":"Leclerc Mont Valérien - Nanterre","city":"Nanterre","departmentNumber":"Hauts-de-Seine","location":[2.215331,48.892423]},{"name":"Intermarché Centre-ville Malakoff","city":"Malakoff","departmentNumber":"Hauts-de-Seine","location":[2.2977599,48.817275]},{"name":"Intermarché Chatillon","city":"Chatillon","departmentNumber":"Hauts-de-Seine","location":[2.2815498,48.7991863]},{"name":"Intermarché Issy-les-Moulineaux","city":"Issy-les-Moulineaux","departmentNumber":"Hauts-de-Seine","location":[2.267695,48.82435359999999]},{"name":"Leclerc Rosny","city":"Rosny Sous Bois","departmentNumber":"Seine-Saint-Denis","location":[2.4845177,48.8726661]},{"name":"Leclerc Saint Ouen","city":"Saint Ouen","departmentNumber":"Seine-Saint-Denis","location":[2.1224456,49.0575525]},{"name":"Cora Livry","city":"Livry Gargan","departmentNumber":"Seine-Saint-Denis","location":[2.5538848,48.927631]},{"name":"Leclerc Villetaneuse","city":"Villetaneuse","departmentNumber":"Seine-Saint-Denis","location":[2.3459158,48.9609899]},{"name":"Cora Livry Gargan","city":"Livry Gargan","departmentNumber":"Seine-Saint-Denis","location":[2.5538848,48.927631]},{"name":"Leclerc Rosny Sous Bois","city":"Rosny Sous Bois","departmentNumber":"Seine-Saint-Denis","location":[2.4845177,48.8726661]},{"name":"Leclerc Le Blanc Mesnil","city":"Le Blanc Mesnil","departmentNumber":"Seine-Saint-Denis","location":[2.4435782,48.9413536]},{"name":"Intermarché Aulnay-sous-Bois","city":"Aulnay-sous-Bois","departmentNumber":"Seine-Saint-Denis","location":[2.5096774,48.928646]},{"name":"Super U Noisy-le-Grand ","city":"Noisy-le-Grand ","departmentNumber":"Seine-Saint-Denis","location":[2.5783166,48.8433406]},{"name":"Monoprix Le Raincy","city":"Le Raincy","departmentNumber":"Seine-Saint-Denis","location":[2.5124286,48.8909609]},{"name":"Leclerc Bonneuil","city":"Bonneuil","departmentNumber":"Val-de-Marne","location":[2.4891667,48.7641667]},{"name":"Intermarché Ivry","city":"Ivry sur Seine","departmentNumber":"Val-de-Marne","location":[2.3745128,48.8180088]},{"name":"Leclerc Vitry-sur-Seine","city":"Vitry-sur-Seine","departmentNumber":"Val-de-Marne","location":[2.4160792,48.7950375]},{"name":"Intermarché Arcueil","city":"Arcueil","departmentNumber":"Val-de-Marne","location":[2.334955,48.80486]},{"name":"Intermarché Cachan Carnot","city":"Cachan Carnot","departmentNumber":"Val-de-Marne","location":[2.3302046,48.79742419999999]},{"name":"Leclerc Champigny-sur-Marne","city":"Champigny-sur-Marne","departmentNumber":"Val-de-Marne","location":[2.5310236,48.8191003]},{"name":"Cora Ermont","city":"Ermont ","departmentNumber":"Val-d'Oise","location":[2.2452212,48.9883969]},{"name":"Leclerc Saint Ouen L'aumone","city":"Saint Ouen L'aumone","departmentNumber":"Val-d'Oise","location":[2.1224456,49.0575525]},{"name":"Leclerc Franconville","city":"Franconville","departmentNumber":"Val-d'Oise","location":[2.2070101,48.9901481]},{"name":"Super U Bessancourt","city":"Bessancourt","departmentNumber":"Val-d'Oise","location":[2.20646,49.03255]},{"name":"E.Leclerc Saint Prix","city":"Saint Prix","departmentNumber":"Val-d'Oise","location":[2.2609446,49.0028042]},{"name":"E.Leclerc La Chapelle Fosses","city":"La Chapelle Fosses","departmentNumber":"Val-d'Oise"},{"name":"Leclerc Bastia ","city":"Bastia - Corse","departmentNumber":"Haute-Corse","location":[9.4412235,42.6661789]},{"name":"Leclerc Hoche Pantin","city":"Pantin","departmentNumber":"Seine-Saint-Denis","location":[2.4018123,48.8936114]},{"name":"Carrefour City Martyrs","city":"Paris 9","departmentNumber":"Paris","location":[2.337829,48.8789787]},{"name":"Monoprix Besancon Pasteur","city":"Besançon","departmentNumber":"Doubs","location":[6.0213372,47.2390215]},{"name":"Monoprix Faubourg du Temple","city":"Paris 11","departmentNumber":"Paris","location":[2.372243000000001,48.8700406]},{"name":"Leclerc Alès ","city":"Alès","departmentNumber":"Gard","location":[4.1075681,44.1176536]},{"name":"Auchan Lobeau Nancy","city":"Nancy","departmentNumber":"Meurthe-et-Moselle","location":[6.1987647,48.6807895]},{"name":"Cora Supermarché Montbéliard","city":"Montbéliard","departmentNumber":"Doubs","location":[6.798466,47.510356]},{"name":"Auchan Hypermarché St-Étienne Centre 2","city":"St-Étienne ","departmentNumber":"Loire","location":[4.394247900000001,45.4231051]},{"name":"Match Saint-Max ","city":"Saint-Max ","departmentNumber":"Meurthe-et-Moselle","location":[6.2134845,48.7014951]},{"name":"Auchan Schweighouse-Sur-Moder","city":"Schweighouse-Sur-Moder","departmentNumber":"Bas-Rhin","location":[7.741873499999999,48.8327728]},{"name":"Monoprix Toulouse rue Alsace Lorraine ","city":"Toulouse","departmentNumber":"Haute-Garonne","location":[1.4453946,43.6034892]},{"name":"Auchan Hypermarché Toulouse Gramont","city":"Toulouse","departmentNumber":"Haute-Garonne","location":[1.49211,43.630325]},{"name":"Leclerc Jarny","city":"Conflans en Jarnisy","departmentNumber":"Meurthe-et-Moselle","location":[5.8386396,49.1653743]},{"name":"Monoprix Joinville-le-Pont ","city":"Joinville-le-Pont ","departmentNumber":"Val-de-Marne","location":[2.4657779,48.81842]},{"name":"match quievrechain ","city":"Quievrechain ","departmentNumber":"Nord","location":[3.661265,50.39981599999999]},{"name":"Monoprix commerce ","city":"Paris 15","departmentNumber":"Paris","location":[2.2976175,48.8489338]}]