[{"name":"Mon Epicerie Paris","city":"Paris 3","departmentNumber":75,"comments":"Vend aussi à distance","location":[2.3560069,48.8639479]},{"name":"Official Vegan Shop","city":"VENTE A DISTANCE ","departmentNumber":69,"link":"https://www.officialveganshop.com"},{"name":"Food Sentimentale","city":"Bayonne","departmentNumber":64,"location":[-1.4755754,43.4927079]},{"name":"Leclerc Clichy","city":"Clichy","departmentNumber":92,"location":[2.304768,48.904526]},{"name":"Intermarché Brancion","city":"Paris 15","departmentNumber":75,"location":[2.3033826,48.8326103]},{"name":"Leclerc Montparnasse","city":"Paris 14","departmentNumber":75,"location":[2.330491,48.83933039999999]},{"name":"Envie Vegane","city":"Strasbourg","departmentNumber":67,"location":[7.757028999999999,48.5808149]},{"name":"Intermarché","city":"Boulogne Billancourt","departmentNumber":92,"location":[2.2284442,48.8347092]},{"name":"Intermarché Le Séquestre","city":"Albi","departmentNumber":81,"location":[2.127228,43.91222399999999]},{"name":"Leclerc Chelles","city":"Chelles","departmentNumber":77,"location":[2.5899808,48.8700047]},{"name":"Match Solférino","city":"Lille","departmentNumber":59,"location":[3.05391,50.6321871]},{"name":"Alterneitiv","city":"Clermont Ferrand","departmentNumber":63,"location":[3.087599,45.78024080000001]},{"name":"Cora Lempdes","city":"Lempdes","departmentNumber":63,"location":[3.198363,45.7790472]},{"name":"Intermarché Senlis","city":"Senlis","departmentNumber":60,"location":[2.591212,49.221316]},{"name":"Intermarché Briec","city":"Briec","departmentNumber":29,"location":[-4.0138402,48.0998362]},{"name":"Match Lambersart","city":"Lambersart","departmentNumber":59,"location":[3.0260987,50.63778869999999]},{"name":"Intermarché Longchamps","city":"Rennes","departmentNumber":35,"location":[-1.6330127,48.1304676]},{"name":"Leclerc Clos du Chêne","city":"Montévrain","departmentNumber":77,"location":[2.756171,48.853799]},{"name":"Leclerc Villeneuve Sur Lot ","city":"Villeneuve sur Lot","departmentNumber":47,"location":[0.7348716,44.4110451]},{"name":"Cabane du 12","city":"Nice","departmentNumber":6,"location":[7.275380499999999,43.7012507]},{"name":"Leclerc Vannes","city":"Vannes","departmentNumber":56,"location":[-2.7930742,47.6680224]},{"name":"Graines et Cailloux","city":"Bordeaux","departmentNumber":33,"location":[-0.5707128,44.8328957]},{"name":"Veg'a Drak","city":"Lanester","departmentNumber":56,"location":[-3.3486696,47.7711274]},{"name":"Leclerc Bois Belin","city":"Anglet","departmentNumber":64,"location":[-1.5188902,43.4928401]},{"name":"Cora Vesoul","city":"Vesoul","departmentNumber":70,"location":[6.1710347,47.6258294]},{"name":"The Good Place","city":"Montpellier","departmentNumber":34,"location":[3.8778485,43.605427]},{"name":"Leclerc Chateaubriant","city":"Chateaubriant","departmentNumber":44,"location":[-1.3881623,47.707096]},{"name":"Leclerc Chemillé en Anjou","city":"Chemillé en Anjou","departmentNumber":49,"location":[-0.7234438999999999,47.2371215]},{"name":"Leclerc Tonneins","city":"Tonneins","departmentNumber":47,"location":[0.2965589,44.4006783]},{"name":"Match Marcq-en-Baroeul","city":"Lille","departmentNumber":59,"location":[3.078089,50.666805]},{"name":"Intermarché Hyper Dole","city":"Dole","departmentNumber":39,"location":[5.510242,47.109189]},{"name":"Intermarché Charles le Gendre","city":"Limoges","departmentNumber":87,"location":[1.2448066,45.8140219]},{"name":"Leclerc Clisson","city":"Clisson","departmentNumber":44,"location":[-1.280386,47.0980011]},{"name":"Intermarché Neuves-Maison","city":"Neuves-Maison","departmentNumber":54,"location":[6.090576599999999,48.6148033]},{"name":"Leclerc Bain de Bretagne","city":"Bain de Bretagne","departmentNumber":35,"location":[-1.6887781,47.8595731]},{"name":"Match Amiens","city":"Amiens","departmentNumber":80,"location":[2.3077708,49.8917328]},{"name":"Leclerc Saint Nazaire","city":"Saint Nazaire","departmentNumber":44,"location":[-2.2576726,47.28727380000001]},{"name":"Leclerc Montévrain","city":"Montévrain","departmentNumber":77,"location":[2.7542602,48.8525072]},{"name":"Leclerc Atlantis","city":"Saint Herblain","departmentNumber":44,"location":[-1.6317761,47.2251725]},{"name":"Leclerc Rueil","city":"Rueil-Malmaison","departmentNumber":92,"location":[2.194152,48.86207659999999]},{"name":"Leclerc Carrières sous Poissy","city":"Carrières sous Poissy","departmentNumber":78,"location":[2.0288926,48.9416531]},{"name":"Intermarché Les Sables d'Olonne","city":"Les Sables d'Olonne","departmentNumber":85,"location":[-1.795493,46.49295799999999]},{"name":"Leclerc Gometz La Ville","city":"Gometz La Ville","departmentNumber":91,"location":[2.1199483,48.66890830000001]},{"name":"Leclerc Rosny","city":"Rosny Sous Bois","departmentNumber":93,"location":[2.4845177,48.8726661]},{"name":"Leclerc Grand Mail","city":"Saint Paul Les Dax","departmentNumber":40,"location":[-1.0399207,43.7295071]},{"name":"Leclerc Rosa Parks","city":"Paris 19","departmentNumber":75,"location":[2.3738552,48.8983801]},{"name":"Cora Massy Centre Commercial","city":"Massy","departmentNumber":91,"location":[2.2767076,48.7252674]},{"name":"Intermarché Aubenas","city":"Aubenas","departmentNumber":7,"location":[4.4075312,44.6164051]},{"name":"Intermarché Bourg en Bresse","city":"Bourg en Bresse","departmentNumber":1,"location":[5.2281312,46.1956093]},{"name":"Aujourd'hui Demain","city":"Paris 11","departmentNumber":75,"location":[2.3746011,48.8588878]},{"name":"Leclerc Bois d'Arcy","city":"Bois d'Arcy","departmentNumber":78,"location":[2.0380871,48.79897949999999]},{"name":"A la végétale","city":"Nîmes","departmentNumber":30,"location":[4.358700799999999,43.8384648]},{"name":"Leclerc Dax","city":"Dax","departmentNumber":40,"location":[-1.045386,43.707871]},{"name":"Leclerc Vern sur Seiche","city":"Rennes","departmentNumber":35,"location":[-1.623281,48.0629427]},{"name":"Leclerc Saint Ouen","city":"Saint Ouen","departmentNumber":93,"location":[2.1224456,49.0575525]},{"name":"Leclerc Herbignac","city":"Herbignac","departmentNumber":44,"location":[-2.3153744,47.4519684]},{"name":"Super U Clamart","city":"Clamart","departmentNumber":92,"location":[2.2661335,48.80184]},{"name":"Leclerc Pont Sainte Maxence","city":"Pont Sainte Maxence","departmentNumber":60,"location":[2.6106251,49.3181004]},{"name":"Leclerc Saint Just en Chaussée","city":"Saint Just en Chaussée","departmentNumber":60,"location":[2.4335039,49.5115078]},{"name":"Leclerc Chantonnay","city":"Chantonnay","departmentNumber":85,"location":[-1.0515695,46.7009388]},{"name":"Super U Noisy Champs","city":"Noisy Champs","departmentNumber":77},{"name":"Leclerc Segré","city":"Segré","departmentNumber":49,"location":[-0.8776563,47.6785468]},{"name":"Cora Ermont","city":"Ermont ","departmentNumber":95,"location":[2.2452212,48.9883969]},{"name":"Leclerc Soustons","city":"Soustons","departmentNumber":40,"location":[-1.3322679,43.7448458]},{"name":"Leclerc Colombes","city":"Colombes","departmentNumber":92,"location":[2.2533313,48.9220615]},{"name":"Match Villers","city":"Villers Lès Nancy","departmentNumber":54,"location":[6.153576,48.672398]},{"name":"Cora Livry","city":"Livry Gargan","departmentNumber":93,"location":[2.5538848,48.927631]},{"name":"Leclerc Les Oudairies","city":"La Roche Sur Yon","departmentNumber":85,"location":[-1.4056976,46.6721674]},{"name":"Intermarché Joigny","city":"Joigny ","departmentNumber":89,"location":[3.3989285,47.9847286]},{"name":"Leclerc Osny","city":"Osny","departmentNumber":95,"location":[2.0887889,49.0657445]},{"name":"Leclerc Urrugne","city":"Urrugne","departmentNumber":64,"location":[-1.6770356,43.3745459]},{"name":"Leclerc Saint Grégoire","city":"Saint Grégoire","departmentNumber":35,"location":[-1.6840555,48.1389353]},{"name":"Super U Pripiac","city":"Pripiac","departmentNumber":35,"location":[-1.9369671,47.810189]},{"name":"Leclerc Dammarie Les Lys","city":"Dammarie Les Lys","departmentNumber":77,"location":[2.6062422,48.5091017]},{"name":"Intermarché Sommières","city":"Sommières","departmentNumber":30,"location":[4.080126,43.78118]},{"name":"Intermarché Express Asnières","city":"Asnières Sur Seine","departmentNumber":92,"location":[2.2775556,48.915752]},{"name":"Leclerc Ribecourt","city":"Ribecourt","departmentNumber":60,"location":[2.9293007,49.51763529999999]},{"name":"Végestal","city":"Rennes","departmentNumber":35,"location":[-1.6774598,48.1141949]},{"name":"Cora Amphion Les Bains","city":"Amphion Les Bains","departmentNumber":74,"location":[6.5249619,46.39106899999999]},{"name":"Super U Viroflay","city":"Viroflay","departmentNumber":78,"location":[2.1743816,48.8037899]},{"name":"Leclerc Houilles","city":"Houilles","departmentNumber":78,"location":[2.1984027,48.9215345]},{"name":"Cora Pacé","city":"Pacé","departmentNumber":35,"location":[-1.7692773,48.1381915]},{"name":"Leclerc Mantes La Ville","city":"Mantes La Ville ","departmentNumber":78,"location":[1.6997046,48.9829635]},{"name":"Cora Rots","city":"Rots","departmentNumber":14,"location":[-0.477036,49.206197]},{"name":"Match Cysoing","city":"Cysoing","departmentNumber":59,"location":[3.2234989,50.566152]},{"name":"Cora Perrigny Les Dijon","city":"Perrigny Les Dijon","departmentNumber":21,"location":[5.0035241,47.2705505]},{"name":"Leclerc Bonneuil","city":"Bonneuil","departmentNumber":94,"location":[2.4891667,48.7641667]},{"name":"Cora Cormontreuil","city":"Cormontreuil","departmentNumber":51,"location":[4.054048,49.2153206]},{"name":"Leclerc Liancourt","city":"Liancourt","departmentNumber":60,"location":[2.468027,49.329255]},{"name":"Intermarché Pamiers","city":"Pamiers","departmentNumber":9,"location":[1.631272,43.105814]},{"name":"Intermarché Ivry","city":"Ivry sur Seine","departmentNumber":94,"location":[2.3745128,48.8180088]},{"name":"Super U Nieppe","city":"Nieppe","departmentNumber":59,"location":[2.84158,50.68626]},{"name":"Leclerc Saint Nicolas de Redon","city":"Saint Nicolas de Redon","departmentNumber":44,"location":[-2.077902,47.6475772]},{"name":"Intermarché Mantes-la-Jolie","city":"Mantes-la-Jolie","departmentNumber":78,"location":[1.71105,48.9976272]},{"name":"Leclerc Mazeres-Lezons","city":"Mazères-Lezons","departmentNumber":64,"location":[-0.3599748,43.2805713]},{"name":"Match Wervicq-Sud","city":"Wervicq-Sud","departmentNumber":59,"location":[3.041675300000001,50.77102000000001]},{"name":"Intermarché Saint-Médard-en-Jalles","city":"Saint-Médard-en-Jalles","departmentNumber":33,"location":[-0.747337,44.90434399999999]},{"name":"Super U La Ravoire","city":"La Ravoire","departmentNumber":73,"location":[5.966069,45.5620578]},{"name":"Leclerc Étampes","city":"Étampes","departmentNumber":91,"location":[2.1383256,48.4410003]},{"name":"Super U Paris Clichy ","city":"Paris 17","departmentNumber":75,"location":[2.32218,48.889397]},{"name":"Leclerc Beauvais ","city":"Beauvais","departmentNumber":60,"location":[2.0888209,49.4322054]},{"name":"Leclerc Cholet Sud","city":"Cholet","departmentNumber":49,"location":[-0.9032084,47.0402651]},{"name":"Leclerc Pau","city":"Pau","departmentNumber":64,"location":[-0.3587091000000001,43.3174435]},{"name":"Match Strasbourg Robertsau","city":"Strasbourg","departmentNumber":67,"location":[7.782666499999999,48.6116831]},{"name":"Le cri de la carotte","city":"Toulouse","departmentNumber":31,"location":[1.4338869,43.591613]},{"name":"Intermarché HYPER Joigny","city":"Joigny ","departmentNumber":89,"location":[3.379552,47.979763]},{"name":"Vegadrak Lanester","city":"Lanester","departmentNumber":56,"location":[-3.3486696,47.7711274]},{"name":"Intermarché Perrier-Sur-Andelle","city":"Perrier-Sur-Andelle","departmentNumber":27,"location":[1.367989,49.41140499999999]},{"name":"Super U St-Julien-Les-Metz","city":"St-Julien-Les-Metz","departmentNumber":57,"location":[6.196787,49.12622649999999]},{"name":"Leclerc So Ouest Levallois-Perret","city":"Levallois-Perret","departmentNumber":92,"location":[2.2978347,48.8930608]},{"name":"Match La Madeleine","city":"La Madeleine","departmentNumber":59,"location":[3.0748095,50.6579577]},{"name":"Leclerc Océane","city":"Rezé ","departmentNumber":44,"location":[-1.546041,47.160797]},{"name":"Leclerc Paridis ","city":" Nantes","departmentNumber":44,"location":[-1.5144854,47.24887469999999]},{"name":"Intermarché SUPER Marcheprime","city":"Marcheprime","departmentNumber":33,"location":[-0.8568018,44.6909625]},{"name":"Super U ST CONTEST","city":"Saint-Contest","departmentNumber":14,"location":[-0.3976911,49.20013429999999]},{"name":"Cora Rots","city":"Rots","departmentNumber":14,"location":[-0.477036,49.206197]},{"name":"Super U Condé","city":"Condé","departmentNumber":14,"location":[-0.5527639999999999,48.850993]},{"name":"Super U Giberville","city":"Giberville","departmentNumber":14,"location":[-0.283315,49.181434]},{"name":"Super U Rue Paul Bert 75011 Paris","city":"75011 Paris","departmentNumber":75,"location":[2.384699,48.85188]},{"name":"Leclerc Vitry-sur-Seine","city":"Vitry-sur-Seine","departmentNumber":94,"location":[2.4160792,48.7950375]},{"name":"Leclerc Saint Ouen L'aumone","city":"Saint Ouen L'aumone","departmentNumber":95,"location":[2.1224456,49.0575525]},{"name":"Super U Thourotte","city":"Thourotte","departmentNumber":60,"location":[2.8654912,49.4771896]},{"name":"Intermarché St Rémy de Provence","city":"St Rémy de Provence","departmentNumber":13,"location":[4.8278444,43.7942304]},{"name":"Leclerc Rambouillet","city":"Rambouillet","departmentNumber":78,"location":[1.8574682,48.6471424]},{"name":"Vivanie","city":"Rouen","departmentNumber":76,"location":[1.0960244,49.4395384]},{"name":"Leclerc Lacroix St Ouen","city":"St Ouen","departmentNumber":60,"location":[2.786658000000001,49.35528499999999]},{"name":"Intermarché Arcueil","city":"Arcueil","departmentNumber":94,"location":[2.334955,48.80486]},{"name":"Leclerc Villetaneuse","city":"Villetaneuse","departmentNumber":93,"location":[2.3459158,48.9609899]},{"name":"Hyper U Baralle","city":"Baralle","departmentNumber":62,"location":[3.0632808,50.2154967]},{"name":"Intermarché Bidart","city":"Bidart","departmentNumber":64,"location":[-1.574162,43.44771799999999]},{"name":"Super U Colombelle","city":"Colombelle","departmentNumber":14,"location":[-0.299177,49.18918]},{"name":"Cora Moulins Les Metz","city":"Moulins Les Metz","departmentNumber":57,"location":[6.1110253,49.08496539999999]},{"name":"Match Cambrai","city":"Cambrai","departmentNumber":59,"location":[3.2315393,50.1685631]},{"name":"Cora Alès","city":"Alès","departmentNumber":30,"location":[4.083352,44.127204]},{"name":"Leclerc Bressuire","city":"Bressuire","departmentNumber":79,"location":[-0.4983955999999999,46.8494824]},{"name":"Super U Simplon","city":"Paris 18","departmentNumber":75,"location":[2.348208,48.8937651]},{"name":"U Express Lille","city":"Lille","departmentNumber":59,"location":[3.0599472,50.64727569999999]},{"name":"Leclerc Orvault Grand Val","city":"Orvault (Nantes)","departmentNumber":44,"location":[-1.5885661,47.2619553]},{"name":"Leclerc Le Poiré Sur vie","city":"Le Poiré Sur Vie","departmentNumber":85,"location":[-1.4961185,46.7629757]},{"name":"Super U Les Halles","city":"Le Havre","departmentNumber":76,"location":[0.1044977,49.4904121]},{"name":"Intermarché Dupuytren","city":"Limoges","departmentNumber":87,"location":[1.2578438,45.8270931]},{"name":"Super U Couilly Pont Aux Dames","city":"Couilly","departmentNumber":77,"location":[2.866361,48.879532]},{"name":"Leclerc Linxe","city":"Linxe","departmentNumber":40,"location":[-1.2552169,43.9279332]},{"name":"Leclerc Franconville","city":"St etienne de Fontbellon","departmentNumber":7,"location":[2.2070101,48.9901481]},{"name":"Cora Livry Gargan","city":"Livry Gargan","departmentNumber":93,"location":[2.5538848,48.927631]},{"name":"Prends en de la Graine","city":"Angers","departmentNumber":49,"location":[-0.550724,47.473563]},{"name":"Super U Blainville","city":"Blainville Sur Orne","departmentNumber":14,"location":[-0.2917046,49.2340482]},{"name":"Intermarché Zola","city":"Nantes","departmentNumber":44,"location":[-1.5864966,47.2148555]},{"name":"Auchan La Défense","city":"La Défense","departmentNumber":92,"location":[2.2351453,48.8911534]},{"name":"Terre Végane","city":"Rixheim","departmentNumber":67,"location":[7.3997632,47.76011279999999]},{"name":"Leclerc Franconville","city":"Franconville","departmentNumber":95,"location":[2.2070101,48.9901481]},{"name":"Leclerc Chantonnay","city":"Chantonnay","departmentNumber":85,"location":[-1.0515695,46.7009388]},{"name":"Leclerc La Roche sur Yon Les oudairies ","city":"La Roche Sur Yon","departmentNumber":85,"location":[-1.4053584,46.6751231]},{"name":"Hyper U La Roche sur Yon","city":"La Roche Sur Yon","departmentNumber":85,"location":[-1.4093117,46.6677474]},{"name":"Intermarché Lunel","city":"Lunel","departmentNumber":34,"location":[4.114808,43.676503]},{"name":"Leclerc Etampes ","city":"Etampes","departmentNumber":91,"location":[2.1383256,48.4410003]},{"name":"Super U Saint Julien les Metz","city":"Saint Julien les Metz","departmentNumber":57,"location":[6.196787,49.12622649999999]},{"name":"Hyper U Brie Comte Robert","city":"Brie Comte Robert","departmentNumber":77,"location":[2.6009363,48.7041423]},{"name":"Intermarché Guérande","city":"Guérande","departmentNumber":44,"location":[-2.407004,47.303939]},{"name":"Super U Saint Contest","city":"Saint Contest","departmentNumber":14,"location":[-0.3976911,49.20013429999999]},{"name":"Auchan Tours Nord petite arche","city":"Tours","departmentNumber":37,"location":[0.6993039,47.4275522]},{"name":"Leclerc Rosny Sous Bois","city":"Rosny Sous Bois","departmentNumber":93,"location":[2.4845177,48.8726661]},{"name":"Intermarché Saint-Rémy de Provence","city":" Saint-Rémy-de-Provence","departmentNumber":13,"location":[4.8278444,43.7942304]},{"name":"Leclerc Sables d'Olonne","city":"Les Sables d'Olonne","departmentNumber":85,"location":[-1.777949,46.5156132]},{"name":"Intermarché Cachan Carnot","city":"Cachan Carnot","departmentNumber":94,"location":[2.3302046,48.79742419999999]},{"name":"Super U WOLFISHEIM","city":"Wolfisheim","departmentNumber":67,"location":[7.671042,48.5908645]},{"name":"Super U Nieppe","city":"Nieppe","departmentNumber":59,"location":[2.84158,50.68626]},{"name":"Super U Hoenheim","city":"Hoenheim","departmentNumber":67,"location":[7.763258,48.63099889999999]},{"name":"LECLERC ANCENIS/ST-GEREON","city":"Ancenis","departmentNumber":44,"location":[-1.1954193,47.3734512]},{"name":"U Express hôtel de ville Rouen","city":"Rouen","departmentNumber":76,"location":[1.099971,49.44323199999999]},{"name":"Cora Vichy ","city":"Vichy","departmentNumber":3,"location":[3.4139008,46.1440429]},{"name":"Super U Valdoie","city":"Valdoie","departmentNumber":90,"location":[6.8433955,47.6685538]},{"name":"Super U Bessancourt","city":"Bessancourt","departmentNumber":95,"location":[2.2045974,49.0330524]},{"name":"Hyper U Sierentz","city":"Sierentz","departmentNumber":68,"location":[7.4402846,47.6665122]},{"name":"Super U Bonne","city":"Bonne","departmentNumber":74,"location":[6.315048699999999,46.1698507]},{"name":"Super U Colmar ","city":"Colmar ","departmentNumber":68,"location":[7.363860000000001,48.06621]},{"name":"Super U Bihorel","city":"Bihorel","departmentNumber":76,"location":[1.1253307,49.462647]},{"name":"Super U Mont-Saint-Aignan","city":"Mont-Saint-Aignan","departmentNumber":76,"location":[1.0796147,49.462627]},{"name":"Leclerc Les Angles","city":"Les Angles","departmentNumber":30,"location":[4.74789,43.9601169]},{"name":"Leclerc Le Cannet Rocheville","city":"Le Cannet","departmentNumber":6,"location":[7.000858099999999,43.5725888]},{"name":"Leclerc Nîmes","city":"Nîmes","departmentNumber":30,"location":[4.3933148,43.8371815]},{"name":"Leclerc express Hasparren","city":"Hasparren","departmentNumber":64,"location":[-1.313904,43.38643649999999]},{"name":"Super U Bernolsheim","city":"Bernolsheim","departmentNumber":67,"location":[7.6879093,48.7481417]},{"name":"U Express Reims Courcelles","city":"Reims","departmentNumber":51,"location":[4.0192485,49.261805]},{"name":"Super U Munster ","city":"Munster","departmentNumber":68,"location":[7.159403699999999,48.0432126]},{"name":"Leclerc Pontchâteau","city":"Pontchâteau","departmentNumber":44,"location":[-2.0822793,47.4335125]},{"name":"Leclerc Marmande","city":"Marmande","departmentNumber":47,"location":[0.1348892,44.5140621]},{"name":"Cora Lens","city":"Vendin-le-Vieil","departmentNumber":62,"location":[2.82594,50.4603723]},{"name":"Hyper U Rumilly","city":"Rumilly","departmentNumber":74,"location":[5.942356999999999,45.867137]},{"name":"Leclerc Le Blanc Mesnil","city":"Le Blanc Mesnil","departmentNumber":93,"location":[2.4435782,48.9413536]},{"name":"Hyper U Biache-Saint-Vaast","city":"Biache-Saint-Vaast","departmentNumber":62,"location":[2.9506585,50.3089096]},{"name":"Géant Casino Saint-André-de-Culzac","city":"Saint-André-de-Culzac","departmentNumber":33,"location":[-0.445865,44.99456]},{"name":"Leclerc Bon-Encontre","city":" Bon-Encontre","departmentNumber":47,"location":[0.6710389999999999,44.1811754]},{"name":"Leclerc Gisors","city":"Gisors","departmentNumber":27,"location":[1.776579,49.279774]},{"name":"Super U Riedisheim","city":"Riedisheim","departmentNumber":68,"location":[7.35672,47.74712]},{"name":"Géant Casino Marseille La Valentine","city":"Marseille","departmentNumber":13,"location":[5.4826255,43.2998897]}]